[
  {
    "name": "AGS Cinemas Navalur Chennai",
    "address": "5th Floor, Vivara Mall, 87/1A,, Rajiv Gandhi Salai, Navalur,, Chennai - 603103.",
    "location": {
      "lat": 12.8756784,
      "lng": 80.2273861492066
    }
  },
  {
    "name": "AGS Cinemas Maduravoyal Chennai",
    "address": "3/47, Alapakkam Main Road,, Pallavan Nagar, Maduravoyal,, Chennai - 600095.",
    "location": {
      "lat": 13.0489853,
      "lng": 80.1659389
    }
  },
  {
    "name": "AGS Cinemas T Nagar Chennai",
    "address": "No. 24, 1, Gopathi Narayanaswami Chetty Rd,, opp.to barathidasan hospital,, Parthasarathi Puram, T. Nagar,, Chennai - 600017.",
    "location": {
      "lat": 13.0477656,
      "lng": 80.2453641
    }
  },
  {
    "name": "AGS Cinemas Villivakkam Chennai",
    "address": "Mettu St, Rajiv Gandhi Nagar,, Villivakkam,, Chennai - 600049.",
    "location": {
      "lat": 13.1042165,
      "lng": 80.2087739
    }
  },
  {
    "name": "Anand theatre Maduranthakam Chennai",
    "address": "103, Grand Southern Trunk Road,, near Divya TVS Motor Dealer, Maduranthakam,, Chennai - 603306",
    "location": {
      "lat": 13.064425,
      "lng": 80.265772
    }
  },
  {
    "name": "Anna Cinemas Chennai",
    "address": "21, Anna Salai, Mount Road,, Anna Salai, Triplicane,, Chennai - 600014",
    "location": {
      "lat": 13.014622,
      "lng": 80.224083
    }
  },
  {
    "name": "Parimalam Cinemas Chennai",
    "address": "Porur, Main Rd, Kundrathur,, Chennai - 600069",
    "location": {
      "lat": 13.2230237,
      "lng": 80.3248725
    }
  },
  {
    "name": "Cinepolis BSR Mall Thoraipakkam Chennai",
    "address": "BSR Mall, Pallavaram-Thuraipakkam Rd,, Seevaram, Thoraipakkam,, Chennai - 600097",
    "location": {
      "lat": 12.909479,
      "lng": 80.22899
    }
  },
  {
    "name": "EVP Cinemas Chembarambakkam Chennai",
    "address": "Survey no 167/4A & 3A,, Santhosha Nagar,, Chennai - 600123",
    "location": {
      "lat": 61.2483331493152,
      "lng": 8.80482073895072
    }
  },
  {
    "name": "G Cinemas Chennai",
    "address": "204, GNT Road,, Near Sri Krishna Indane Gramin Vitrak,, Karanodai,, Chennai - 600067, Email: info@kauveryhospital.com",
    "location": {
      "lat": 13.036376,
      "lng": 80.236249
    }
  },
  {
    "name": "Ganapathi Theater Gummidipoondi Chennai",
    "address": "No 109, GNT Road,, Opposite Rajeshwari Theater,, Gummidipoondi,, Chennai - 601201",
    "location": {
      "lat": 12.99171,
      "lng": 80.217297
    }
  },
  {
    "name": "Ganapathy Ram Theatre Adyar Chennai",
    "address": "Lattice Bridge Road,, Adyar,, Chennai - 600020",
    "location": {
      "lat": 13.0015953,
      "lng": 80.2565789
    }
  },
  {
    "name": "Gayathri Cinemas Maduranthakam Chennai",
    "address": "Chennai - Theni Highway,, Near Kaggai Amman kovil,, Chennai - 603306",
    "location": {
      "lat": 13.125321,
      "lng": 80.2565309
    }
  },
  {
    "name": "GK Cinemas 4K 3D Chennai",
    "address": "Lakshmi Nagar,, Porur,, Chennai - 600116",
    "location": {
      "lat": 13.033061,
      "lng": 80.163003
    }
  },
  {
    "name": "Gokulam Cinemas Poonamallee Chennai",
    "address": "795C, Old Sundar Theatre Complex, Rukmani Nagar,, Poonamallee - Avadi High Rd,, Near Ambedkar Statue,, Poonamallee,, Chennai - 600056",
    "location": {
      "lat": 13.092255,
      "lng": 80.105488
    }
  },
  {
    "name": "Gowri Theatre Ponneri Thiruvallur Chennai",
    "address": "NGO Nagar Extension,, Opposite RR Cafe,, Chennai - 601204",
    "location": {
      "lat": 11.676528,
      "lng": 78.173646
    }
  },
  {
    "name": "Green Cinemas 4K Atmos (Radha Theatre) Padi Chennai",
    "address": "64 Railway Station Road,, Periyar Nagar, Korattur,, Korattur, Padi,, Chennai - 600050",
    "location": {
      "lat": 13.107079,
      "lng": 80.181646
    }
  },
  {
    "name": "Inox National Virugambakkam Chennai",
    "address": "INOX Leisure Ltd., 3rd Chandra Metro Mall,, Arcot Rd, Virugambakkam,, Chennai - 600092",
    "location": {
      "lat": 13.046714,
      "lng": 80.190473
    }
  },
  {
    "name": "INOX Chennai Citi Centre Chennai",
    "address": "Chennai City Centre, Dr Radha Krishnan Salai,, Loganathan Colony, Mylapore,, Chennai - 600004",
    "location": {
      "lat": 13.036565,
      "lng": 80.267306
    }
  },
  {
    "name": "INOX Cinemas The Marina Mall, OMR, Chennai",
    "address": "3rd Floor, The Marina mall,, Old Mahabalipuram Road, Egatoor,, Navalur,, Chennai - 603103",
    "location": {
      "lat": 13.067311,
      "lng": 80.252117
    }
  },
  {
    "name": "Janatha Theatre Pallavaram Chennai",
    "address": "2K Theatre, Cantoment,, Srinivasa perumal koil, Rajendra Nagar,, Pallavaram,, Chennai - 600043",
    "location": {
      "lat": 12.975067,
      "lng": 80.167981
    }
  },
  {
    "name": "Jothi Theatre St Thomas Mount, Alandur Chennai",
    "address": "40, N Parade Rd, near Kathipara Junction,, Parangi Malai, Alandur,, Chennai - 600016",
    "location": {
      "lat": 13.005162,
      "lng": 80.202196
    }
  },
  {
    "name": "Kasi Talkies Dolby Atmos 4k Ashok Nagar Chennai",
    "address": "60, Pillaiyar Koil St,, Kasi Estate, West Jafferkhanpet,, Chennai - 600083",
    "location": {
      "lat": 13.029154,
      "lng": 80.207627
    }
  },
  {
    "name": "Krishnaveni Cinemas T.Nagar Chennai",
    "address": "Old No 2, New, 3,, N Usman Rd, T. Nagar,, Chennai - 600017",
    "location": {
      "lat": 13.053189,
      "lng": 80.234358
    }
  },
  {
    "name": "KK Cinemas Minjur Chennai",
    "address": "Near Railway Gate, Kattur Road,, Near SST Computer Centre,, Minjur,, Chennai - 601203",
    "location": {
      "lat": 13.278615,
      "lng": 80.257767
    }
  },
  {
    "name": "Kumaran Theatre Puzhuthivakkam Madipakkam Chennai",
    "address": "5, Muthu Mohamed Street,, Puzhuthivakkam, Madipakkam,, Chennai - 600091",
    "location": {
      "lat": 12.971436,
      "lng": 80.1926195
    }
  },
  {
    "name": "Jazz Cinemas Luxe Velachery Chennai",
    "address": "Phoenix Market City,, No. 142, 2nd Floor, Velachery Road,, Indira Gandhi Nagar, Velachery,, Chennai - 600042",
    "location": {
      "lat": 12.99171,
      "lng": 80.217297
    }
  },
  {
    "name": "Malliga Cinema Hall Mangadu Chennai",
    "address": "No. 250, Near Kamatchi Amman Koil,, Shivananda Park,, Kunrathur Road,, Chennai - 600056",
    "location": {
      "lat": 13.045402,
      "lng": 80.093156
    }
  },
  {
    "name": "Mani Talkies Minjur Chennai",
    "address": "27, Thiruvottiyur High Road,, Minjur,, Chennai - 601203",
    "location": {
      "lat": 13.122923,
      "lng": 80.287394
    }
  },
  {
    "name": "Mayajaal Multiplex East Coast Road Chennai",
    "address": "34/1, East Coast Road,, Kanathur,, Chennai - 603112",
    "location": {
      "lat": 12.9086606,
      "lng": 80.249748
    }
  },
  {
    "name": "Kumaran Cinemas Medavakkam Chennai",
    "address": "Velachery Rd, Babu Nagar,, Medavakkam,, Chennai - 600100",
    "location": {
      "lat": 12.980365,
      "lng": 80.229195
    }
  },
  {
    "name": "Meenakshi Theatre Old Washermanpet Chennai",
    "address": "No.45, Kamaraj Salai,, Salai Ma Nagar, Old Washermanpet,, Chennai - 600068",
    "location": {
      "lat": 13.154879,
      "lng": 80.268315
    }
  },
  {
    "name": "National Theatre 4K Dolby Atmos Tambaram Chennai",
    "address": "109, Rajaji Road,, Tambaram West,, Tambaram,, Chennai - 600045",
    "location": {
      "lat": 12.9285326,
      "lng": 80.1158849
    }
  },
  {
    "name": "Odeon Mani Theatre Tiruvottiyur Chennai",
    "address": "W Mada Street, Kaladipet,, Tiruvottiyur,, Chennai - 600019",
    "location": {
      "lat": 12.9850882,
      "lng": 80.26078545
    }
  },
  {
    "name": "PVR Cinemas Skywalk Aminjikarai Chennai",
    "address": "No.1, Nelson Manickam Road,, Aminjikarai, Chennai - 600029",
    "location": {
      "lat": 13.0715431,
      "lng": 80.2211563517731
    }
  },
  {
    "name": "PVR Grand Galada Pallavaram Chennai",
    "address": "PVR Ltd., Grand Galada,, Mall Kohinoor-2, Arumalai Chavadi,, Pallavaram,, Chennai - 600043",
    "location": {
      "lat": 12.975067,
      "lng": 80.167981
    }
  },
  {
    "name": "PVR Grand Mall Velachery Chennai",
    "address": "137, Velachery - Tambaram Main Road,, V.O.C Nagar, Doctor Seetaram Nagar,, Velachery,, Chennai - 600042",
    "location": {
      "lat": 12.971872,
      "lng": 80.218965
    }
  },
  {
    "name": "PVR Heritage RSL ECR Chennai",
    "address": "1st Floor Near Uthandi Toll Gate,, Survey No: 3/488B1A And 3/700 No 17,, Uthandi Village,, Chennai - 600119",
    "location": {
      "lat": 61.2483331493152,
      "lng": 8.80482073895072
    }
  },
  {
    "name": "PVR SKLS Galaxy Mall Red Hills Chennai",
    "address": "PVR Ltd. PVR Cinemas 4th Floor Galaxy Mall,, Mall Survey No. 93/IC, 2B, GNT Road,, Red Hills,, Chennai - 600052",
    "location": {
      "lat": 61.2483331493152,
      "lng": 8.80482073895072
    }
  },
  {
    "name": "PVR VR Mall Anna Nagar Chennai",
    "address": "3rd Floor VR Mall Metro Zone,, No.44, Pillaiyar Koil Street,, 100 Feet Rd, Anna Nagar,, Chennai - 600040",
    "location": {
      "lat": 13.0872,
      "lng": 80.216442
    }
  },
  {
    "name": "Raj Theatre Saidapet Chennai",
    "address": "20, Abdul Razzak Street,, Saidapet,, Chennai - 600015",
    "location": {
      "lat": 13.144693,
      "lng": 80.185025
    }
  },
  {
    "name": "Remy Cinemas Avadi Chennai",
    "address": "JB Estate, Chelliamman Kovil Street,, next to Bank Of Baroda bank,, exactly, opp. to pandian, rice mill,, Avadi,, Chennai - 600054",
    "location": {
      "lat": -6.9344694,
      "lng": 107.6049539
    }
  },
  {
    "name": "Rohini Silver Screens Koyambedu Chennai",
    "address": "141/2, Poonamallee High Road,, Koyambedu,, Chennai - 600107",
    "location": {
      "lat": 13.0768513,
      "lng": 80.2066763
    }
  },
  {
    "name": "SB (Sri Bhagavathi) Cinemas Poonamallee Chennai",
    "address": "25, Amman Koil Street,, Indhira Nagar, Kumananchavadi,, Chennai - 600056",
    "location": {
      "lat": 13.0876403,
      "lng": 80.2764422
    }
  },
  {
    "name": "SDC Mahalakshmi Cinema Hall Purasaiwakkam Chennai",
    "address": "Old No. 538, 762, Strahans Road,, Pattalam,, Purasaiwakkam,, Chennai - 600012",
    "location": {
      "lat": 13.0974537,
      "lng": 80.2570993
    }
  },
  {
    "name": "Shree Radha cinemas 4K DOLBY ATMOS Redhills Chennai",
    "address": "GNT Rd, Red Hills,, Padianallur,, Chennai - 600052",
    "location": {
      "lat": 13.0571957,
      "lng": 80.2009993
    }
  },
  {
    "name": "Sivasakthi Cinemas Padi Chennai",
    "address": "No-1, Moorthy Nagar,, Padi,, Chennai - 600050",
    "location": {
      "lat": 13.095779,
      "lng": 80.184705
    }
  },
  {
    "name": "SK Marlen Cinemas Alandur Guindy Chennai",
    "address": "Subramania Mudali Street,, No:18, Appavu Street,, Alandur,, Chennai - 600016",
    "location": {
      "lat": 13.005162,
      "lng": 80.202196
    }
  },
  {
    "name": "Sree Gopi Krishna Complex (GK Marlen) Ayanavaram Chennai",
    "address": "13, Muthamman Koil Street,, Gopal Pillai Nagar, Bharathi Nagar,, Ayanavaram,, Chennai - 600023",
    "location": {
      "lat": 13.095195,
      "lng": 80.228408
    }
  },
  {
    "name": "SPI Palazzo Nexus Vadapalani Chennai",
    "address": "3rd Floor, Forum Vijaya Mall,, No. 183, Arcot Road,, Vadapalani,, Chennai - 600026",
    "location": {
      "lat": 13.0504807,
      "lng": 80.2149908
    }
  },
  {
    "name": "SPI Escape Royapettah Chennai",
    "address": "Express Avenue, Express Estate,, Royapettah,, Chennai - 600014",
    "location": {
      "lat": 13.0586555,
      "lng": 80.264179
    }
  },
  {
    "name": "SPI S2 Cinemas Perambur Chennai",
    "address": "3rd floor, The Grand Venus Mall,, Paper Mills Road,, Perambur,, Chennai - 600011",
    "location": {
      "lat": 13.112524,
      "lng": 80.236315
    }
  },
  {
    "name": "SPI S2 Cinemas Theyagaraja Thiruvanmiyur Chennai",
    "address": "No. 60, Lattice Bridge Road,, Ranganatha Puram,, Adyar,, Chennai - 600113",
    "location": {
      "lat": 13.0015953,
      "lng": 80.2565789
    }
  },
  {
    "name": "SPI Sathyam Cinemas Royapettah Chennai",
    "address": "No. 8, Thiruvika Road,, Peters Colony,, Royapettah,, Chennai - 600014",
    "location": {
      "lat": 13.056059,
      "lng": 80.258284
    }
  },
  {
    "name": "Sree Lakshmibala Moviepark Padi Chennai",
    "address": "Moorthy Nagar, Anna Nagar,, Padi,, Chennai - 600050",
    "location": {
      "lat": 13.095779,
      "lng": 80.184705
    }
  },
  {
    "name": "Sree Roja Theatre Periyakuppam Thiruvallur Chennai",
    "address": "State Highway 57, Periyakuppam,, Thiruvallur,, Chennai - 602003",
    "location": {
      "lat": 13.119432,
      "lng": 79.914196
    }
  },
  {
    "name": "Sree Thulasi Theatre Thiruvallur Chennai",
    "address": "State Highway 57, Periyakuppam,, Thiruvallur,, Chennai - 602001",
    "location": {
      "lat": 13.119432,
      "lng": 79.914196
    }
  },
  {
    "name": "Vetrivel Cinemas Nanganallur Madipakkam Chennai",
    "address": "18, M.G.R. Road,, Telegraph Colony,, Nanganallur,, Chennai - 600061",
    "location": {
      "lat": 12.976877,
      "lng": 80.183188
    }
  },
  {
    "name": "Sri Vigneshwara Theatre (RGB Laser Projector) Poonamallee Chennai",
    "address": "MG Nagar, Trunk Road,, Poonamallee,, Chennai - 600123",
    "location": {
      "lat": 13.030176,
      "lng": 80.120766
    }
  },
  {
    "name": "VVM Cinemas Ponneri Chennai",
    "address": "57, Newcar Street,, Ponneri,, Thiruvallur District,, Chennai - 601204",
    "location": {
      "lat": 13.336164,
      "lng": 80.194828
    }
  },
  {
    "name": "Woodlands Cinemas Royapettah Chennai",
    "address": "25, Westcott Road,, near Hindustan Petroleum Petrol Pump,, Royapettah,, Chennai - 600014",
    "location": {
      "lat": 13.0563765,
      "lng": 80.264635
    }
  }
]
